{
  "airports": [
    {
      "iata": "SFO",
      "lon": "-122.38988",
      "iso": "US",
      "status": 1,
      "name": "San Francisco International Airport",
      "continent": "NA",
      "type": "airport",
      "lat": "37.615215",
      "size": "large"
    },
    {
      "iata": "IAD",
      "lon": "-77.44774",
      "iso": "US",
      "status": 1,
      "name": "Washington Dulles International Airport",
      "continent": "NA",
      "type": "airport",
      "lat": "38.95315",
      "size": "large"
    },
    {
      "iata": "SEA",
      "lon": "-122.301735",
      "iso": "US",
      "status": 1,
      "name": "Seattle Tacoma International Airport",
      "continent": "NA",
      "type": "airport",
      "lat": "47.44384",
      "size": "large"
    },
    {
      "iata": "OAK",
      "lon": "-122.21201",
      "iso": "US",
      "status": 1,
      "name": "Metropolitan Oakland International Airport",
      "continent": "NA",
      "type": "airport",
      "lat": "37.71188",
      "size": "large"
    },
    {
      "iata": "EWR",
      "lon": "-74.17876",
      "iso": "US",
      "status": 1,
      "name": "Newark Liberty International Airport",
      "continent": "NA",
      "type": "airport",
      "lat": "40.68907",
      "size": "large"
    },
    {
      "iata": "JFK",
      "lon": "-73.78817",
      "iso": "US",
      "status": 1,
      "name": "John F Kennedy International Airport",
      "continent": "NA",
      "type": "airport",
      "lat": "40.642334",
      "size": "large"
    }
  ]
}